{"authenticationResultCode":"ValidCredentials","brandLogoUri":"http:\/\/dev.virtualearth.net\/Branding\/logo_powered_by.png","copyright":"Copyright Â© 2016 Microsoft and its suppliers. All rights reserved. This API cannot be accessed and the content and any results may not be used, reproduced or transmitted in any manner without express written permission from Microsoft Corporation.","resourceSets":[{"estimatedTotal":5,"resources":[{"__type":"Location:http:\/\/schemas.microsoft.com\/search\/local\/ws\/rest\/v1","bbox":[22.54156,88.34683,22.54159,88.3473],"name":"Rabindra Sadan, Bhawanipur, Kolkata 700020, India","point":{"type":"Point","coordinates":[22.54158,88.34707]},"address":{"addressLine":"Rabindra Sadan","adminDistrict":"West Bengal","adminDistrict2":"Kolkata","countryRegion":"India","formattedAddress":"Rabindra Sadan, Bhawanipur, Kolkata 700020, India","locality":"Kolkata","postalCode":"700020"},"confidence":"Medium","entityType":"RoadBlock","geocodePoints":[{"type":"Point","coordinates":[22.54158,88.34707],"calculationMethod":"InterpolationOffset","usageTypes":["Display"]},{"type":"Point","coordinates":[22.54158,88.34707],"calculationMethod":"Interpolation","usageTypes":["Route"]}],"matchCodes":["Ambiguous","Good"]},{"__type":"Location:http:\/\/schemas.microsoft.com\/search\/local\/ws\/rest\/v1","bbox":[22.54132,88.34716,22.54157,88.3472],"name":"Rabindra Sadan, Bhawanipur, Kolkata 700020, India","point":{"type":"Point","coordinates":[22.54145,88.34718]},"address":{"addressLine":"Rabindra Sadan","adminDistrict":"West Bengal","adminDistrict2":"Kolkata","countryRegion":"India","formattedAddress":"Rabindra Sadan, Bhawanipur, Kolkata 700020, India","locality":"Kolkata","postalCode":"700020"},"confidence":"Medium","entityType":"RoadBlock","geocodePoints":[{"type":"Point","coordinates":[22.54145,88.34718],"calculationMethod":"InterpolationOffset","usageTypes":["Display"]},{"type":"Point","coordinates":[22.54145,88.34718],"calculationMethod":"Interpolation","usageTypes":["Route"]}],"matchCodes":["Ambiguous","Good"]},{"__type":"Location:http:\/\/schemas.microsoft.com\/search\/local\/ws\/rest\/v1","bbox":[22.54157,88.3472,22.54163,88.34721],"name":"Rabindra Sadan, Bhawanipur, Kolkata 700020, India","point":{"type":"Point","coordinates":[22.5416,88.34721]},"address":{"addressLine":"Rabindra Sadan","adminDistrict":"West Bengal","adminDistrict2":"Kolkata","countryRegion":"India","formattedAddress":"Rabindra Sadan, Bhawanipur, Kolkata 700020, India","locality":"Kolkata","postalCode":"700020"},"confidence":"Medium","entityType":"RoadBlock","geocodePoints":[{"type":"Point","coordinates":[22.5416,88.34721],"calculationMethod":"InterpolationOffset","usageTypes":["Display"]},{"type":"Point","coordinates":[22.5416,88.34721],"calculationMethod":"Interpolation","usageTypes":["Route"]}],"matchCodes":["Ambiguous","Good"]},{"__type":"Location:http:\/\/schemas.microsoft.com\/search\/local\/ws\/rest\/v1","bbox":[22.54155,88.3473,22.54156,88.34743],"name":"Rabindra Sadan, Sreepally, Bhawanipur, Kolkata 700020, India","point":{"type":"Point","coordinates":[22.54156,88.34737]},"address":{"addressLine":"Rabindra Sadan","adminDistrict":"West Bengal","adminDistrict2":"Kolkata","countryRegion":"India","formattedAddress":"Rabindra Sadan, Sreepally, Bhawanipur, Kolkata 700020, India","locality":"Kolkata","postalCode":"700020"},"confidence":"Medium","entityType":"RoadBlock","geocodePoints":[{"type":"Point","coordinates":[22.54156,88.34737],"calculationMethod":"InterpolationOffset","usageTypes":["Display"]},{"type":"Point","coordinates":[22.54156,88.34737],"calculationMethod":"Interpolation","usageTypes":["Route"]}],"matchCodes":["Ambiguous","Good"]},{"__type":"Location:http:\/\/schemas.microsoft.com\/search\/local\/ws\/rest\/v1","bbox":[22.54131,88.34725,22.54156,88.3473],"name":"Rabindra Sadan, Sreepally, Bhawanipur, Kolkata 700020, India","point":{"type":"Point","coordinates":[22.54144,88.34728]},"address":{"addressLine":"Rabindra Sadan","adminDistrict":"West Bengal","adminDistrict2":"Kolkata","countryRegion":"India","formattedAddress":"Rabindra Sadan, Sreepally, Bhawanipur, Kolkata 700020, India","locality":"Kolkata","postalCode":"700020"},"confidence":"Medium","entityType":"RoadBlock","geocodePoints":[{"type":"Point","coordinates":[22.54144,88.34728],"calculationMethod":"InterpolationOffset","usageTypes":["Display"]},{"type":"Point","coordinates":[22.54144,88.34728],"calculationMethod":"Interpolation","usageTypes":["Route"]}],"matchCodes":["Ambiguous","Good"]}]}],"statusCode":200,"statusDescription":"OK","traceId":"ade9d281b3ed48bc967367b937038a37|HK20271656|02.00.175.3100|HK2SCH010280426, i-dbe0c255.ap-southeast-1a"}